City_ID,City,Country,Lat,Lng,Max Temp,Humidity,Cloudiness,Wind Speed,Current Description
0,Vaini,TO,-21.2,-175.2,77.16,94,20,8.05,few clouds
1,Georgetown,MY,5.4112,100.3354,85.95,74,20,2.3,few clouds
2,Airai,TL,-8.9266,125.4092,61.2,92,100,2.44,overcast clouds
3,Ushuaia,AR,-54.8,-68.3,46.06,57,75,8.05,broken clouds
4,Castro,BR,-24.7911,-50.0119,71.73,79,77,10.54,light rain
5,Barrow,US,71.2906,-156.7887,5.02,66,100,13.8,overcast clouds
6,Jamestown,US,42.097,-79.2353,47.52,71,100,10.36,overcast clouds
7,Lulea,SE,65.5842,22.1547,41.07,56,0,5.75,clear sky
8,Laguna,US,38.421,-121.4238,39.34,80,0,0.0,clear sky
9,Pangnirtung,CA,66.1451,-65.7125,10.4,72,75,0.0,broken clouds
10,Tasiilaq,GL,65.6145,-37.6368,28.56,64,94,2.93,overcast clouds
11,Okhotsk,RU,59.3833,143.3,15.08,93,96,3.83,overcast clouds
12,Busselton,AU,-33.65,115.3333,61.05,71,0,14.97,clear sky
13,Mataura,NZ,-46.1927,168.8643,51.48,90,69,4.88,broken clouds
14,Punta Arenas,CL,-53.15,-70.9167,50.11,66,40,24.16,light rain
15,Hobart,AU,-42.8794,147.3294,56.01,75,20,4.61,few clouds
16,Saint George,US,37.1041,-113.5841,45.19,29,20,19.57,few clouds
17,Chuy,UY,-33.6971,-53.4616,67.64,64,2,9.01,clear sky
18,Albany,US,42.6001,-73.9662,51.4,89,100,12.06,light rain
19,Bluff,NZ,-46.6,168.3333,51.8,64,59,18.77,broken clouds
20,Atuona,PF,-9.8,-139.0333,78.33,79,28,16.8,light rain
21,Carnarvon,AU,-24.8667,113.6333,71.67,68,0,14.97,clear sky
22,Sokone,SN,13.8833,-16.3667,95.68,18,25,4.59,scattered clouds
23,Qaqortoq,GL,60.7167,-46.0333,37.74,40,100,14.29,overcast clouds
24,Lorengau,PG,-2.0226,147.2712,81.79,74,10,6.42,clear sky
25,Mogadishu,SO,2.0371,45.3438,85.05,67,5,14.83,clear sky
26,Oistins,BB,13.0667,-59.5333,84.29,58,20,19.57,few clouds
27,Puerto Ayora,EC,-0.7393,-90.3518,78.55,94,56,1.99,broken clouds
28,Yining,CN,29.0361,114.5636,75.25,68,100,3.02,overcast clouds
29,Sibolga,ID,1.7427,98.7792,78.37,87,57,2.33,broken clouds
30,Husum,DE,54.4858,9.0524,59.99,57,100,15.68,overcast clouds
31,La Primavera,CO,5.4906,-70.4092,82.63,66,99,4.88,overcast clouds
32,Ode,NG,7.7899,5.7117,92.57,38,87,8.97,overcast clouds
33,Zheleznodorozhnyy,RU,55.7503,38.0042,51.35,93,100,9.1,overcast clouds
34,Hithadhoo,MV,-0.6,73.0833,84.06,67,11,11.18,few clouds
35,Saldanha,ZA,-33.0117,17.9442,68.43,63,21,11.16,few clouds
36,Illapel,CL,-31.6308,-71.1653,61.63,56,91,3.89,overcast clouds
37,Yelniki,RU,54.6207,43.876,56.71,69,100,9.82,overcast clouds
38,Batagay,RU,67.6333,134.6333,6.75,96,100,1.74,overcast clouds
39,Agropoli,IT,40.3469,14.9966,67.08,48,99,4.54,overcast clouds
40,Kihei,US,20.785,-156.4656,75.85,79,20,10.36,light rain
41,Hermanus,ZA,-34.4187,19.2345,71.35,63,6,7.38,clear sky
42,Lasa,IT,46.6166,10.7002,60.69,73,44,3.42,scattered clouds
43,Kawalu,ID,-7.3817,108.2082,73.65,93,65,0.65,broken clouds
44,Kutum,SD,14.2,24.6667,93.94,7,0,6.02,clear sky
45,Comodoro Rivadavia,AR,-45.8667,-67.5,51.66,50,0,12.66,clear sky
46,Maldonado,UY,-34.6667,-54.9167,65.59,56,0,9.31,clear sky
47,Chokurdakh,RU,70.6333,147.9167,1.31,94,100,4.41,overcast clouds
48,Najran,SA,17.4924,44.1277,97.45,9,19,18.28,few clouds
49,Sistranda,NO,63.7256,8.834,44.56,67,100,3.78,overcast clouds
50,Port Alfred,ZA,-33.5906,26.891,68.18,82,100,5.99,overcast clouds
51,Hualmay,PE,-11.0964,-77.6139,67.96,82,32,9.48,scattered clouds
52,Lompoc,US,34.6391,-120.4579,44.78,65,0,18.99,clear sky
53,Leh,IN,34.1667,77.5833,41.34,57,96,7.54,overcast clouds
54,Hasaki,JP,35.7333,140.8333,57.6,88,6,14.07,clear sky
55,Moose Factory,CA,51.2585,-80.6094,39.2,70,100,20.71,overcast clouds
56,Cayenne,GF,4.9333,-52.3333,82.09,1,0,4.61,clear sky
57,Moroni,KM,-11.7022,43.2551,82.13,76,99,2.44,moderate rain
58,Saskylakh,RU,71.9167,114.0833,-5.89,100,100,2.3,overcast clouds
59,Buala,SB,-8.145,159.5921,80.65,80,91,5.21,overcast clouds
60,Los Boquerones,PA,8.0833,-80.85,80.11,67,100,3.56,overcast clouds
61,Kuytun,RU,54.3419,101.5036,28.17,62,100,3.67,overcast clouds
62,Taldan,RU,53.6667,124.8,25.29,60,66,4.92,broken clouds
63,Tuktoyaktuk,CA,69.4541,-133.0374,-2.2,71,20,11.5,few clouds
64,Geraldton,AU,-28.7667,114.6,63.01,88,0,5.75,clear sky
65,Praia Da Vitoria,PT,38.7333,-27.0667,68.25,73,20,11.41,few clouds
66,Anuchino,RU,43.9622,133.0544,35.04,84,100,2.08,overcast clouds
67,Rikitea,PF,-23.1203,-134.9692,78.66,71,14,18.97,few clouds
68,Cuiluan,CN,47.72,128.648,31.59,61,6,2.91,clear sky
69,Torbay,CA,47.6666,-52.7314,37.27,82,100,31.07,light intensity drizzle
70,Avarua,CK,-21.2078,-159.775,78.85,89,75,4.61,broken clouds
71,Dikson,RU,73.5069,80.5464,26.94,93,100,13.87,overcast clouds
72,Tezu,IN,27.9167,96.1667,73.87,69,0,4.45,clear sky
73,Fort Nelson,CA,58.8053,-122.7002,6.39,66,75,4.61,broken clouds
74,Bell Ville,AR,-32.6259,-62.6887,63.81,47,22,3.33,few clouds
75,Iqaluit,CA,63.7506,-68.5145,10.13,85,100,8.05,mist
76,Lincoln,US,40.8,-96.667,53.17,86,100,13.0,overcast clouds
77,Honghu,CN,29.8206,113.4621,65.07,87,100,16.04,light rain
78,Prachuap Khiri Khan,TH,12.2167,99.75,74.53,88,56,4.07,light rain
79,Qaanaaq,GL,77.484,-69.3632,0.59,79,99,0.49,overcast clouds
80,Deputatskiy,RU,69.3,139.9,1.2,94,100,4.16,overcast clouds
81,Nelson Bay,AU,-32.7167,152.15,66.0,93,100,6.78,light rain
82,Axim,GH,4.8699,-2.2405,87.4,63,100,10.2,overcast clouds
83,Larsnes,NO,62.2028,5.5773,46.0,52,100,2.08,overcast clouds
84,Imbituba,BR,-28.24,-48.6703,73.81,95,100,5.23,moderate rain
85,Sydney,AU,-33.8679,151.2073,64.36,84,40,11.5,scattered clouds
86,Lop Buri,TH,14.7981,100.654,91.15,55,44,7.4,light rain
87,Victoria,HK,22.2855,114.1577,80.19,87,0,1.99,clear sky
88,Tshikapa,CD,-6.4167,20.8,88.41,52,93,3.89,overcast clouds
89,Richards Bay,ZA,-28.783,32.0377,79.07,61,45,5.73,scattered clouds
90,Kapaa,US,22.0752,-159.319,73.72,93,100,14.97,overcast clouds
91,Katsuura,JP,35.1333,140.3,62.15,92,1,11.88,clear sky
92,Labuhan,ID,-6.8844,112.2051,80.4,75,43,2.57,scattered clouds
93,Kahului,US,20.8947,-156.47,75.85,78,20,10.36,few clouds
94,Ribeira Grande,PT,38.5167,-28.7,63.0,88,40,10.36,scattered clouds
95,Hambantota,LK,6.1241,81.1185,81.64,80,91,12.08,overcast clouds
96,New Norfolk,AU,-42.7826,147.0587,54.66,58,48,3.0,scattered clouds
97,Saint-Augustin,CA,51.226,-58.6502,34.27,83,9,14.83,clear sky
98,Lebu,CL,-37.6167,-73.65,53.33,73,100,14.85,overcast clouds
99,Nishihara,JP,26.1842,127.7558,72.68,92,40,11.5,scattered clouds
100,Port-Cartier,CA,50.0334,-66.8654,37.62,89,100,2.84,overcast clouds
101,Akyab,MM,20.15,92.9,82.56,75,3,10.16,clear sky
102,Silopi,TR,37.2497,42.4694,63.77,43,7,5.23,clear sky
103,Rorvik,NO,64.8621,11.2373,42.78,77,21,8.01,few clouds
104,Lagos,NG,6.5833,3.75,86.95,63,100,6.6,overcast clouds
105,Trairi,BR,-3.2778,-39.2689,83.79,71,100,4.05,overcast clouds
106,Itapeva,BR,-23.9822,-48.8756,73.49,82,100,7.45,overcast clouds
107,Ahipara,NZ,-35.1667,173.1667,62.2,79,100,14.09,light rain
108,Vardo,NO,70.3705,31.1107,31.87,74,46,25.14,scattered clouds
109,Tuatapere,NZ,-46.1333,167.6833,49.5,77,28,8.93,scattered clouds
110,Mount Gambier,AU,-37.8333,140.7667,48.24,82,0,5.12,clear sky
111,Saint Anthony,US,45.0205,-93.218,45.1,60,75,10.36,broken clouds
112,Klaksvik,FO,62.2266,-6.589,41.92,84,100,23.91,overcast clouds
113,Wadi Maliz,TN,36.4681,8.5495,82.06,24,7,10.63,clear sky
114,Khatanga,RU,71.9667,102.5,0.37,94,100,7.11,overcast clouds
115,Arraial Do Cabo,BR,-22.9661,-42.0278,82.36,74,20,16.11,few clouds
116,Northam,GB,51.0333,-4.2167,57.65,88,100,12.24,overcast clouds
117,Vila Franca Do Campo,PT,37.7167,-25.4333,61.21,81,100,8.28,overcast clouds
118,Hillsborough,US,37.5741,-122.3794,46.18,70,20,12.66,haze
119,Fortuna,US,40.5982,-124.1573,39.65,95,100,6.91,overcast clouds
120,Villa Carlos Paz,AR,-31.4241,-64.4978,60.39,44,63,3.0,light rain
121,Huarmey,PE,-10.0681,-78.1522,67.98,85,29,7.52,scattered clouds
122,Naze,JP,28.3667,129.4833,68.92,93,13,6.85,few clouds
123,Naliya,IN,23.2667,68.8333,85.24,60,0,17.31,clear sky
124,Bagaces,CR,10.5271,-85.2548,78.73,60,100,14.45,overcast clouds
125,Narsimhapur,IN,22.95,79.2,101.08,13,100,4.99,overcast clouds
126,Narsaq,GL,60.9167,-46.05,41.22,36,100,15.79,overcast clouds
127,Poiana Teiului,RO,47.1,25.9667,49.35,50,100,6.08,overcast clouds
128,Marsa Matruh,EG,31.3525,27.2453,61.81,51,5,18.21,clear sky
129,Ostrovnoy,RU,68.0531,39.5131,34.72,83,51,18.92,broken clouds
130,Brae,GB,60.3964,-1.353,43.52,70,100,18.97,overcast clouds
131,Sitka,US,57.0531,-135.33,33.69,32,40,6.91,scattered clouds
132,Balkanabat,TM,39.5108,54.3671,90.86,11,2,12.97,clear sky
133,Bosaso,SO,11.2842,49.1816,86.61,57,0,6.85,clear sky
134,Nieuwpoort,BE,51.1244,2.7735,69.24,52,75,11.5,broken clouds
135,Mahebourg,MU,-20.4081,57.7,80.26,78,40,13.8,scattered clouds
136,Saint-Honore,CA,48.5334,-71.0824,38.59,94,100,1.79,overcast clouds
137,Abha,SA,18.2164,42.5053,80.42,21,20,11.5,few clouds
138,Bambous Virieux,MU,-20.3428,57.7575,80.22,78,40,13.8,light rain
139,Bulawayo,ZW,-20.15,28.5833,80.92,30,84,5.91,broken clouds
140,Broome,US,42.2506,-75.833,52.2,85,75,7.0,broken clouds
141,Kapoeta,SS,4.7717,33.5903,95.54,28,79,10.2,broken clouds
142,Pacific Grove,US,36.6177,-121.9166,46.51,72,0,5.01,clear sky
143,Haines Junction,CA,60.7522,-137.5108,-0.45,85,9,1.14,clear sky
144,Zonguldak,TR,41.25,31.8333,47.25,50,54,11.92,broken clouds
145,Ulladulla,AU,-35.35,150.4667,58.77,80,80,5.91,broken clouds
146,Mar Del Plata,AR,-38.0023,-57.5575,58.87,74,0,11.5,clear sky
147,Los Llanos De Aridane,ES,28.6585,-17.9182,64.15,85,75,12.66,broken clouds
148,Khani,GE,41.9563,42.9566,38.77,98,100,5.37,overcast clouds
149,Cape Town,ZA,-33.9258,18.4232,81.12,49,0,10.36,clear sky
150,Baykit,RU,61.67,96.37,18.64,90,74,3.51,broken clouds
151,Inhambane,MZ,-23.865,35.3833,87.78,62,20,6.91,few clouds
152,Punta Cardon,VE,11.6581,-70.215,80.06,75,98,26.71,overcast clouds
153,Cap-Haitien,HT,19.7578,-72.2042,78.75,65,20,6.91,few clouds
154,Todos Santos,MX,23.45,-110.2167,61.66,79,39,6.93,scattered clouds
155,Muhoroni,KE,-0.1541,35.1988,85.73,38,64,8.25,broken clouds
156,Arlit,NE,18.7369,7.3853,108.07,4,0,10.85,clear sky
157,Makungu,TZ,-8.7333,35.2833,70.41,81,96,4.74,light rain
158,Lazaro Cardenas,MX,17.9583,-102.2,73.11,83,100,4.63,overcast clouds
159,Souillac,MU,-20.5167,57.5167,79.18,78,40,13.8,light rain
160,Opuwo,NA,-18.0607,13.84,74.59,53,100,8.55,overcast clouds
161,Gruia,RO,44.2675,22.7047,61.79,32,5,14.81,clear sky
162,Ilulissat,GL,69.2167,-51.1,28.42,50,40,4.61,scattered clouds
163,Yellowknife,CA,62.456,-114.3525,-8.88,77,20,6.91,few clouds
164,Namibe,AO,-15.1961,12.1522,86.38,54,5,7.78,clear sky
165,San Patricio,US,28.017,-97.5169,75.88,93,42,13.11,scattered clouds
166,Butaritari,KI,3.0707,172.7902,80.64,78,13,11.03,light rain
167,Norman Wells,CA,65.282,-126.8329,-14.76,70,0,3.44,clear sky
168,Te Anau,NZ,-45.4167,167.7167,45.03,85,24,0.38,few clouds
169,Orlik,RU,52.5178,99.825,7.72,77,96,0.81,overcast clouds
170,Manoharpur,IN,27.3,75.95,95.54,11,100,8.1,overcast clouds
171,Cabo San Lucas,MX,22.8909,-109.9124,64.51,73,6,12.91,clear sky
172,Marabba,SD,12.35,32.1833,103.33,16,23,3.8,few clouds
173,Kytmanovo,RU,53.4593,85.4479,39.09,78,27,7.81,scattered clouds
174,Visnes,NO,59.3556,5.2242,50.38,42,0,8.05,clear sky
175,Yerbogachen,RU,61.2767,108.0108,18.3,95,12,2.33,few clouds
176,Mareeba,AU,-17.0,145.4333,74.12,89,57,3.02,broken clouds
177,Kailua,US,21.4022,-157.7394,75.18,84,16,4.0,few clouds
178,Kendari,ID,-3.945,122.4989,77.7,84,99,2.68,overcast clouds
179,Rawson,AR,-43.3002,-65.1023,52.03,59,24,20.47,few clouds
180,Beloha,MG,-25.1667,45.05,80.92,63,100,17.65,overcast clouds
181,Raudeberg,NO,61.9875,5.1352,45.27,64,100,4.85,overcast clouds
182,Nome,US,64.5011,-165.4064,33.87,69,100,5.75,overcast clouds
183,Hailar,CN,49.2,119.7,36.21,55,100,1.95,overcast clouds
184,Kamenka,RU,51.3223,42.7678,66.13,46,12,15.14,few clouds
185,Kavieng,PG,-2.5744,150.7967,82.36,72,7,9.44,clear sky
186,Calamar,CO,10.2511,-74.9146,85.62,55,100,9.26,overcast clouds
187,Gazli,UZ,40.1333,63.45,78.04,29,10,3.36,clear sky
188,Thompson,CA,55.7435,-97.8558,23.16,86,100,11.5,overcast clouds
189,Talnakh,RU,69.4865,88.3972,24.21,95,100,14.72,snow
190,Belmonte,BR,-15.8631,-38.8828,83.89,61,6,1.25,clear sky
191,Lakhipur,IN,26.0299,90.3041,82.49,64,93,3.18,overcast clouds
192,Faanui,PF,-16.4833,-151.75,81.3,74,8,15.86,light rain
193,Tomakivka,UA,47.8157,34.7414,39.87,91,100,22.12,overcast clouds
194,Ampanihy,MG,-24.7,44.75,90.39,35,100,10.69,overcast clouds
195,Boyolangu,ID,-8.1181,111.8935,76.64,84,86,1.77,overcast clouds
196,Koszalin,PL,54.1944,16.1722,49.77,45,100,3.22,overcast clouds
197,Saint-Philippe,RE,-21.3585,55.7679,78.39,84,74,18.54,light rain
198,Guerrero Negro,MX,27.9769,-114.0611,59.95,76,95,16.98,overcast clouds
199,Bethel,US,41.3712,-73.414,51.21,85,100,5.99,light rain
200,Husavik,IS,66.0449,-17.3389,33.8,78,20,8.39,few clouds
201,High Level,CA,58.5169,-117.136,8.71,78,75,8.05,broken clouds
202,Tiksi,RU,71.6872,128.8694,-13.14,100,93,5.66,overcast clouds
203,Nikolskoye,RU,59.7035,30.7861,46.29,68,100,6.29,overcast clouds
204,Port-Gentil,GA,-0.7193,8.7815,81.48,79,18,10.0,few clouds
205,Hobyo,SO,5.3505,48.5268,85.86,63,100,12.53,overcast clouds
206,Takasaki,JP,36.3333,139.0167,65.3,48,30,2.62,scattered clouds
207,Dukat,RU,62.55,155.55,-16.28,100,100,3.91,overcast clouds
208,Vestmannaeyjar,IS,63.4427,-20.2734,43.79,70,20,29.93,few clouds
209,Gwadar,PK,25.1216,62.3254,84.52,59,0,21.18,clear sky
210,Harper,LR,4.375,-7.7169,84.74,73,100,7.83,light rain
211,Coquimbo,CL,-29.9533,-71.3436,55.13,94,100,4.61,overcast clouds
212,Alice,US,27.7523,-98.0697,74.77,88,40,19.57,mist
213,Phan Thiet,VN,10.9333,108.1,78.28,85,96,2.46,overcast clouds
214,Atikokan,CA,48.7555,-91.6216,27.1,83,6,3.2,clear sky
215,Wattegama,LK,6.7989,81.4808,78.19,90,100,5.03,light rain
216,Naron,ES,43.5167,-8.1528,65.01,69,65,13.15,broken clouds
217,Antigonish,CA,45.6169,-61.9986,49.14,57,98,3.0,overcast clouds
218,Bredasdorp,ZA,-34.5322,20.0403,81.54,40,0,13.76,clear sky
219,Leningradskiy,RU,69.3833,178.4167,-17.41,97,100,4.63,overcast clouds
220,Awjilah,LY,29.1081,21.2869,75.72,19,10,8.95,clear sky
221,Touros,BR,-5.1989,-35.4608,85.46,59,100,11.14,overcast clouds
222,Point Pleasant,US,40.0832,-74.0682,53.94,70,100,11.5,overcast clouds
223,Westport,US,41.1415,-73.3579,53.56,86,100,8.05,light rain
224,Dinard,FR,48.6314,-2.0614,58.62,77,100,11.5,overcast clouds
225,Russell,US,32.3502,-85.1999,62.96,90,0,0.0,clear sky
226,Nizwa,OM,22.9333,57.5333,98.82,8,0,15.19,clear sky
227,Chapais,CA,49.7834,-74.8492,38.98,84,100,8.43,overcast clouds
228,Vigeland,NO,58.0844,7.305,44.42,70,100,12.86,overcast clouds
229,Kodiak,US,57.79,-152.4072,27.91,80,0,3.44,clear sky
230,Sorong,ID,-0.8833,131.25,81.54,76,100,4.03,light rain
231,Samarai,PG,-10.6167,150.6667,83.68,75,32,13.15,scattered clouds
232,Emerald,AU,-23.5333,148.1667,74.34,52,0,9.69,clear sky
233,Acapulco,MX,16.8634,-99.8901,75.02,83,75,0.0,broken clouds
234,Provideniya,RU,64.3833,-173.3,19.89,92,100,17.45,light snow
235,Misratah,LY,32.3754,15.0925,63.95,58,100,19.53,overcast clouds
236,Tazovskiy,RU,67.4667,78.7,34.86,100,100,13.27,light snow
237,Miri,MY,4.4148,114.0089,80.74,89,40,3.44,scattered clouds
238,Jeremie,HT,18.65,-74.1167,79.72,72,37,6.13,scattered clouds
239,Upernavik,GL,72.7868,-56.1549,12.27,94,100,10.11,light snow
240,Longyearbyen,SJ,78.2186,15.6401,15.64,67,75,5.75,broken clouds
241,San Carlos De Bariloche,AR,-41.1456,-71.3082,44.35,53,20,18.41,few clouds
242,Ixtapa,MX,20.7,-105.2,72.23,94,75,2.3,broken clouds
243,Straseni,MD,47.1414,28.6103,56.43,31,100,18.52,overcast clouds
244,Malatya,TR,38.5,38.0,50.05,40,75,19.57,light rain
245,Sungaipenuh,ID,-2.0833,101.3833,67.05,97,99,1.41,overcast clouds
246,Thetford Mines,CA,46.0913,-71.3013,40.28,99,100,3.67,overcast clouds
247,Nemuro,JP,43.3236,145.575,36.82,97,100,7.09,overcast clouds
248,Handan,CN,36.6006,114.4678,56.57,37,100,5.86,overcast clouds
249,Chifeng,CN,42.2683,118.9636,44.87,20,83,6.51,broken clouds
250,Saint-Leu,RE,-21.15,55.2833,80.31,76,24,12.71,light rain
251,Ahuimanu,US,21.4447,-157.8378,74.91,82,75,8.05,broken clouds
252,Kontagora,NG,10.3999,5.4695,105.48,21,99,2.06,overcast clouds
253,Bonavista,CA,48.6499,-53.1147,31.98,92,100,34.52,overcast clouds
254,Constitucion,CL,-35.3333,-72.4167,55.38,57,100,5.95,overcast clouds
255,Pisco,PE,-13.7,-76.2167,66.25,77,0,5.75,mist
256,Loandjili,CG,-4.7561,11.8578,83.14,75,27,10.98,scattered clouds
257,San Fernando,PH,15.0286,120.6898,81.18,73,100,1.01,overcast clouds
258,Omboue,GA,-1.5746,9.2618,82.92,74,91,9.24,light rain
259,Linhares,BR,-19.3911,-40.0722,82.04,69,95,0.56,overcast clouds
260,Nanortalik,GL,60.1432,-45.2371,35.02,61,100,6.51,overcast clouds
261,Houston,US,29.7633,-95.3633,74.41,81,100,17.27,overcast clouds
262,Ambon,ID,-3.6954,128.1814,78.94,94,40,2.3,light rain
263,Hilo,US,19.7297,-155.09,72.28,93,100,8.05,mist
264,Asmara,ER,15.3333,38.9333,73.67,29,82,7.52,broken clouds
265,Potiskum,NG,11.7091,11.0694,103.14,19,90,7.87,overcast clouds
266,Mao,ES,39.8885,4.2658,63.16,77,20,16.11,few clouds
267,Wuwei,CN,37.9281,102.6414,49.78,21,75,4.29,broken clouds
268,Tautira,PF,-17.7333,-149.15,80.8,75,27,15.88,light rain
269,Brownwood,US,31.7093,-98.9912,71.6,77,100,11.5,overcast clouds
270,Cochrane,CA,51.1834,-114.4687,14.27,73,100,10.36,overcast clouds
271,Conakry,GN,9.538,-13.6773,89.67,35,20,9.22,few clouds
272,Carai,BR,-17.1889,-41.6947,75.56,72,97,2.68,overcast clouds
273,Bastia,FR,42.6667,9.3333,64.2,80,40,23.02,scattered clouds
274,Somerset,US,40.5668,-74.5496,52.25,84,100,1.99,moderate rain
275,Nador,MA,35.174,-2.9287,62.85,82,40,10.36,scattered clouds
276,Usinsk,RU,65.9939,57.5281,35.11,100,100,12.57,light snow
277,Bitung,ID,1.4451,125.1824,79.65,81,100,6.4,overcast clouds
278,Dungarpur,IN,23.8333,73.7167,97.56,9,43,15.26,scattered clouds
279,Porto Novo,BJ,6.4965,2.6036,89.42,52,100,10.69,overcast clouds
280,Luderitz,NA,-26.6481,15.1594,73.71,54,4,6.62,clear sky
281,Lima,PE,-12.0432,-77.0282,62.85,88,75,8.05,broken clouds
282,Derzhavinsk,KZ,51.1,66.3167,46.99,71,100,14.85,overcast clouds
283,Nyahururu,KE,0.0421,36.3673,78.03,21,70,14.47,broken clouds
284,Nabha,IN,30.3747,76.1486,97.3,13,98,8.05,overcast clouds
285,Aquiraz,BR,-3.9014,-38.3911,85.17,73,83,5.77,broken clouds
286,Yegros,PY,-26.45,-56.4,64.98,98,100,5.21,overcast clouds
287,East London,ZA,-33.0153,27.9116,70.74,83,20,5.75,light rain
288,Uspenskaya,RU,45.7645,41.067,46.76,90,100,17.58,light rain
289,Mountain Home,US,43.133,-115.6912,29.68,93,100,14.97,light snow
290,Gambela,ET,8.25,34.5833,94.14,35,72,8.39,broken clouds
291,Shenjiamen,CN,29.9576,122.298,62.91,98,100,12.55,overcast clouds
292,Oranjemund,NA,-28.55,16.4333,76.5,44,0,12.08,clear sky
293,Marzuq,YE,14.4,46.4667,88.14,15,1,17.25,clear sky
294,Bouca,CF,6.5105,18.2733,103.48,20,19,5.68,few clouds
295,Lavrentiya,RU,65.5833,-171.0,16.48,89,100,10.51,overcast clouds
296,Porbandar,IN,21.6422,69.6093,84.67,64,0,12.28,clear sky
297,Codrington,AU,-38.2667,141.9667,51.75,82,0,3.53,clear sky
298,Warrnambool,AU,-38.3833,142.4833,52.81,81,0,4.21,clear sky
299,Cherskiy,RU,68.75,161.3,-14.6,94,8,3.56,clear sky
300,Lagoa,PT,39.05,-27.9833,59.99,88,100,20.04,overcast clouds
301,Zhezkazgan,KZ,47.8043,67.7144,58.98,44,20,11.18,few clouds
302,Bonthe,SL,7.5264,-12.505,85.42,69,78,9.19,light rain
303,Ovre Ardal,NO,61.3167,7.8,40.08,71,100,2.24,overcast clouds
304,Hamilton,US,39.1834,-84.5333,57.81,90,100,8.05,overcast clouds
305,Guaruja,BR,-23.9931,-46.2564,82.26,89,20,3.44,few clouds
306,Totness,SR,5.8833,-56.3167,81.36,74,74,9.6,broken clouds
307,Caravelas,BR,-17.7125,-39.2481,84.06,65,20,3.67,few clouds
308,Skelleftea,SE,64.7507,20.9528,39.56,60,0,8.05,clear sky
309,Amapa,BR,1.0,-52.0,75.16,95,100,2.51,moderate rain
310,Wenatchee,US,47.4235,-120.3103,38.25,88,100,9.22,light snow
311,Avera,US,33.194,-82.5271,64.54,66,8,4.21,clear sky
312,Skjervoy,NO,70.0311,20.9714,32.0,92,100,9.71,light snow
313,Barcelos,PT,41.5388,-8.6151,61.84,78,70,7.99,broken clouds
314,Nizhniy Tsasuchey,RU,50.5167,115.1333,33.37,51,28,2.59,scattered clouds
315,Khandyga,RU,62.6667,135.6,5.65,99,45,1.43,scattered clouds
316,Krasnovishersk,RU,60.4078,57.082,40.32,100,100,2.42,overcast clouds
317,Markivka,UA,49.5229,39.5705,65.91,48,100,12.26,overcast clouds
318,Mpika,ZM,-11.8343,31.4529,71.96,73,80,7.25,broken clouds
319,Maniitsoq,GL,65.4167,-52.9,27.99,62,100,2.57,overcast clouds
320,Kyra,RU,49.5776,111.9753,33.64,46,100,2.01,overcast clouds
321,Coruripe,BR,-10.1256,-36.1756,84.51,60,6,4.43,clear sky
322,Fort Wellington,GY,6.4,-57.6,81.61,72,100,9.44,overcast clouds
323,Alice Springs,AU,-23.7,133.8833,81.95,28,65,1.14,broken clouds
324,Port Lincoln,AU,-34.7333,135.8667,63.12,75,83,17.25,broken clouds
325,Huilong,CN,31.8111,121.655,61.97,97,100,7.78,overcast clouds
326,Kayerkan,RU,69.3497,87.7602,23.52,100,100,10.74,light snow
327,Saint-Joseph,RE,-21.3667,55.6167,77.38,80,41,19.08,light rain
328,Itacoatiara,BR,-3.1431,-58.4442,74.5,98,100,2.1,overcast clouds
329,Guia De Isora,ES,28.2115,-16.7795,66.43,63,5,4.9,clear sky
330,Bauta,CU,22.9828,-82.5464,75.09,60,0,9.22,clear sky
331,Kavaratti,IN,10.5669,72.642,84.94,72,100,9.6,overcast clouds
332,Karratha,AU,-20.7377,116.8463,83.7,45,0,12.15,clear sky
333,Dzhubga,RU,44.3211,38.7039,47.1,79,100,15.28,overcast clouds
334,Hornepayne,CA,49.2138,-84.7705,35.04,75,9,13.06,clear sky
335,Wangqing,CN,43.3218,129.7634,40.37,73,100,3.58,overcast clouds
336,Nuuk,GL,64.1835,-51.7216,30.81,80,20,11.5,few clouds
337,Mahanoro,MG,-19.9,48.8,78.67,72,100,7.49,light rain
338,Veraval,IN,20.9,70.3667,84.67,64,0,12.37,clear sky
339,Kaitangata,NZ,-46.2817,169.8464,50.85,79,82,8.72,broken clouds
340,Acarau,BR,-2.8856,-40.12,81.07,79,100,5.28,overcast clouds
341,Nouadhibou,MR,20.931,-17.0347,78.78,41,83,24.16,broken clouds
342,Llanes,ES,43.4198,-4.7549,67.89,63,50,5.7,scattered clouds
343,Pecos,US,31.4229,-103.4932,63.3,20,0,6.91,clear sky
344,Half Moon Bay,US,37.4636,-122.4286,46.78,72,20,12.66,haze
345,Mandera,KE,3.9366,41.867,94.59,33,100,8.12,light rain
346,Broken Hill,AU,-31.95,141.4333,64.11,45,93,10.36,overcast clouds
347,Ternate,ID,0.8,127.4,82.02,78,98,4.85,overcast clouds
348,Paracuru,BR,-3.41,-39.0306,85.1,73,99,3.71,overcast clouds
349,Isangel,VU,-19.55,169.2667,78.85,83,19,4.41,few clouds
350,Tuy Hoa,VN,13.0833,109.3,75.33,90,58,2.66,broken clouds
351,Cockburn Town,TC,21.4612,-71.1419,77.09,76,89,26.82,overcast clouds
352,Wasilla,US,61.5814,-149.4394,34.52,56,0,8.01,clear sky
353,Morant Bay,JM,17.8815,-76.4093,82.02,77,10,11.12,clear sky
354,Severo-Kurilsk,RU,50.6789,156.125,25.07,83,43,4.74,scattered clouds
355,Coahuayana,MX,18.7333,-103.6833,72.01,62,10,2.86,clear sky
356,Muravlenko,RU,63.7898,74.523,33.12,98,96,16.51,overcast clouds
357,Yulara,AU,-25.2406,130.9889,87.64,19,100,9.22,overcast clouds
358,Bengkulu,ID,-3.8004,102.2655,79.99,78,98,1.14,overcast clouds
359,Preobrazheniye,RU,42.9019,133.9064,40.05,90,100,2.68,overcast clouds
360,Angoche,MZ,-16.2325,39.9086,83.95,65,1,7.18,clear sky
361,Sao Filipe,CV,14.8961,-24.4956,71.76,72,100,11.9,overcast clouds
362,Inongo,CD,-1.95,18.2667,82.96,59,12,1.95,few clouds
363,Muros,ES,42.7762,-9.0603,60.67,78,41,14.03,scattered clouds
364,Alyangula,AU,-13.8483,136.4192,80.47,89,100,0.0,overcast clouds
365,Esperance,AU,-33.8667,121.9,62.44,89,78,7.92,light rain
366,Mandalgovi,MN,45.7625,106.2708,25.74,86,100,15.3,overcast clouds
367,Le Port,RE,-20.9373,55.2919,80.56,59,40,3.13,light rain
368,Borogontsy,RU,62.6683,131.1683,10.18,95,85,2.01,overcast clouds
369,Lazurne,UA,46.084,32.5295,49.86,54,100,19.22,overcast clouds
370,Flinders,AU,-34.5833,150.8552,60.19,86,100,1.99,overcast clouds
371,Cidreira,BR,-30.1811,-50.2056,72.55,82,100,5.77,overcast clouds
372,Carutapera,BR,-1.195,-46.02,78.44,91,95,6.06,overcast clouds
373,Emborion,GR,40.4833,21.55,59.36,45,0,3.4,clear sky
374,Sampit,ID,-2.5333,112.95,76.19,93,87,2.3,overcast clouds
375,Kamaishi,JP,39.2667,141.8833,56.08,67,17,7.67,few clouds
376,Lata,PT,40.1629,-8.3327,61.81,80,99,6.55,light rain
377,Fuyu,CN,45.1833,124.8167,44.15,26,23,3.91,few clouds
378,Alofi,NU,-19.0595,-169.9187,73.29,94,100,1.14,overcast clouds
379,Jalu,LY,29.0331,21.5482,75.6,19,8,9.24,clear sky
380,Fallon,US,39.4735,-118.7774,28.27,53,0,10.36,clear sky
381,Belaya Gora,RU,68.5333,146.4167,-5.93,100,100,2.26,overcast clouds
382,Vanimo,PG,-2.6741,141.3028,79.38,88,29,6.53,scattered clouds
383,Chickasha,US,35.0526,-97.9364,70.18,88,0,21.85,clear sky
384,Tateyama,JP,34.9833,139.8667,66.09,90,0,14.36,clear sky
385,Sinnamary,GF,5.3833,-52.95,80.02,83,21,11.14,few clouds
386,Roma,US,43.2128,-75.4557,52.52,95,100,8.05,overcast clouds
387,Wajir,KE,1.7471,40.0573,92.16,40,79,7.54,broken clouds
388,Bereda,ES,43.2686,-7.5406,52.57,83,96,7.02,light rain
389,Mildura,AU,-34.2,142.15,59.07,38,73,3.44,broken clouds
390,Vao,NC,-22.6667,167.4833,76.03,71,0,14.85,clear sky
391,Roald,NO,62.5833,6.1333,46.33,61,0,10.36,clear sky
392,Tura,IN,25.5198,90.2201,77.38,73,100,3.13,overcast clouds
393,Calvinia,ZA,-31.4707,19.776,75.92,30,0,2.68,clear sky
394,Namatanai,PG,-3.6667,152.4333,79.61,76,50,6.87,scattered clouds
395,Bara,NG,10.3744,10.7288,98.53,29,100,11.63,light rain
396,Sambava,MG,-14.2667,50.1667,81.3,76,7,14.0,clear sky
397,Hay River,CA,60.8156,-115.7999,-4.02,77,40,8.05,scattered clouds
398,Port Blair,IN,11.6667,92.75,86.04,70,20,3.44,mist
399,Eresos,GR,39.1667,25.9333,54.82,45,2,7.45,clear sky
400,Aksha,RU,50.2814,113.2867,31.08,36,60,1.5,broken clouds
401,Hirara,JP,24.8,125.2833,73.96,84,1,12.97,clear sky
402,Prince Rupert,CA,54.3161,-130.3201,37.09,29,0,23.02,clear sky
403,Manoel Urbano,BR,-8.8389,-69.2597,78.67,83,100,2.84,overcast clouds
404,Taganak,PH,6.0833,118.3,82.54,79,22,24.54,few clouds
405,Gikongoro,RW,-2.464,29.5739,70.2,67,97,6.85,light rain
406,Praia,CV,14.9215,-23.5087,75.74,57,40,23.02,scattered clouds
407,Dingle,PH,10.9995,122.6711,73.29,93,100,4.0,overcast clouds
408,Moranbah,AU,-22.0016,148.0466,70.93,79,6,9.24,clear sky
409,Nara,JP,34.6851,135.8049,68.92,68,0,1.3,clear sky
410,Shingu,JP,33.7333,135.9833,62.47,93,1,5.35,clear sky
411,Shar,KZ,49.5886,81.0453,51.91,45,48,8.41,scattered clouds
412,Olinda,BR,-8.0089,-34.8553,83.93,65,40,8.05,scattered clouds
413,Atar,MR,20.5169,-13.0499,95.41,10,90,11.79,overcast clouds
414,Smithers,CA,54.7804,-127.1743,17.92,45,0,11.5,clear sky
415,Hofn,IS,64.2539,-15.2082,37.85,84,100,18.14,overcast clouds
416,Gunjur,GM,13.2019,-16.7339,87.87,45,0,3.44,clear sky
417,Portland,US,45.5234,-122.6762,38.75,93,100,5.01,overcast clouds
418,Constantine,DZ,36.365,6.6147,81.81,19,0,4.61,clear sky
419,Pevek,RU,69.7008,170.3133,-18.08,90,100,3.0,overcast clouds
420,Ponta Delgada,PT,37.7333,-25.6667,61.52,88,75,12.66,broken clouds
421,Linxia,CN,35.6003,103.2064,50.34,25,11,9.51,few clouds
422,Clyde River,CA,70.4692,-68.5914,-12.77,84,100,4.61,mist
423,Amod,IN,21.9833,72.9,97.03,18,10,11.3,clear sky
424,San Vicente,AR,-26.6167,-54.1333,63.75,100,100,0.83,overcast clouds
425,Sayyan,YE,15.1718,44.3244,76.23,12,2,11.77,clear sky
426,Sterling,US,39.0062,-77.4286,63.84,75,75,5.75,broken clouds
427,San Onofre,CO,9.7359,-75.5263,84.63,66,88,5.57,overcast clouds
428,Kruisfontein,ZA,-34.0033,24.7314,82.89,47,5,13.33,clear sky
429,Creel,MX,27.75,-107.6333,39.83,97,21,9.08,few clouds
430,Vilyuysk,RU,63.7553,121.6247,5.02,98,32,3.4,scattered clouds
431,Qixia,CN,37.2975,120.8256,48.31,52,100,10.87,overcast clouds
432,Tynda,RU,55.1667,124.7167,14.94,86,20,4.72,few clouds
433,High Rock,BS,26.6208,-78.2833,73.42,63,0,17.96,clear sky
434,Terme,TR,41.2092,36.9739,48.13,66,100,15.3,light rain
435,Aitape,PG,-3.1374,142.3475,79.57,85,53,5.57,broken clouds
436,Uige,AO,-7.6087,15.0613,85.44,52,69,4.29,broken clouds
437,Tambopata,PE,-12.7333,-69.1833,78.69,83,40,6.91,scattered clouds
438,Ayan,RU,56.45,138.1667,25.74,89,100,9.75,light snow
439,Popondetta,PG,-8.7537,148.2534,75.78,86,78,2.8,broken clouds
440,Champerico,GT,14.3,-91.9167,77.54,62,82,8.7,broken clouds
441,Rawah,IQ,34.4816,41.9093,75.4,17,0,15.21,clear sky
442,Asfi,MA,32.2994,-9.2372,62.94,71,100,9.75,overcast clouds
443,Borba,BR,-4.3878,-59.5939,82.18,78,100,2.19,overcast clouds
444,Kurumkan,RU,54.3,110.3,25.61,72,55,5.59,broken clouds
445,Muli,MV,2.9167,73.5667,84.34,74,28,13.42,scattered clouds
446,Belen De Umbria,CO,5.2009,-75.8687,65.05,93,98,0.94,overcast clouds
447,Samana,DO,19.2056,-69.3369,76.96,83,20,0.0,few clouds
448,Semenyih,MY,2.9516,101.843,83.98,89,99,3.13,overcast clouds
449,Raga,SS,8.4596,25.678,98.98,21,75,6.71,broken clouds
450,Fairbanks,US,64.8378,-147.7164,28.74,59,0,9.22,clear sky
451,Simplicio Mendes,BR,-7.8539,-41.9103,86.95,51,20,5.14,few clouds
452,Dakar,SN,14.6937,-17.4441,77.88,78,40,13.8,scattered clouds
453,Taltal,CL,-25.4,-70.4833,63.55,67,0,4.18,clear sky
454,Srednekolymsk,RU,67.45,153.6833,-8.54,98,5,2.84,clear sky
455,Solnechnyy,RU,50.7214,136.6319,25.47,96,98,4.56,light snow
456,Yorosso,ML,12.3536,-4.7761,102.79,17,90,3.22,overcast clouds
457,Marawi,PH,7.9986,124.2928,68.95,90,100,4.03,overcast clouds
458,Poum,NC,-20.2333,164.0167,78.75,70,39,17.54,scattered clouds
459,Numan,NG,9.4667,12.0333,95.81,31,90,7.47,overcast clouds
460,Cap Malheureux,MU,-19.9842,57.6142,80.47,78,1,8.99,clear sky
461,Pandan Niog,PH,6.2282,120.5631,82.24,84,32,16.17,scattered clouds
462,Togur,RU,58.3631,82.8265,33.03,99,88,4.09,overcast clouds
463,Yenagoa,NG,4.9247,6.2642,92.08,51,92,3.8,light rain
464,Mainaguri,IN,26.5667,88.8167,82.38,61,31,5.99,scattered clouds
465,Pinyug,RU,60.251,47.7842,45.88,95,100,5.79,overcast clouds
466,Beringovskiy,RU,63.05,179.3167,17.87,95,100,14.03,snow
467,Severo-Yeniseyskiy,RU,60.3725,93.0408,16.29,93,100,1.52,overcast clouds
468,Bartica,GY,6.4,-58.6167,82.72,72,86,4.99,overcast clouds
469,Aykhal,RU,66.0,111.5,9.32,94,71,5.37,broken clouds
470,Salina Cruz,MX,16.1667,-95.2,78.98,79,100,3.0,overcast clouds
471,Asau,RO,46.4333,26.4,49.28,47,100,7.43,overcast clouds
472,Port Elizabeth,ZA,-33.918,25.5701,85.1,69,20,16.11,few clouds
473,Magadi,IN,12.9667,77.2333,86.16,48,100,16.71,overcast clouds
474,Malanje,AO,-9.5402,16.341,80.35,55,77,6.08,broken clouds
475,Katherine,AU,-14.4667,132.2667,79.12,89,100,5.75,overcast clouds
476,Kazanskaya,RU,45.4106,40.4361,45.84,85,100,17.92,light rain
477,Ilo,PE,-17.6394,-71.3375,67.06,73,100,3.44,haze
478,La Mana,EC,-0.9333,-79.2167,74.08,96,97,1.32,light rain
479,Mayo,US,38.8876,-76.5119,60.21,82,100,1.01,overcast clouds
480,Tocopilla,CL,-22.092,-70.1979,66.36,66,3,6.82,clear sky
481,Waraseoni,IN,21.75,80.0333,100.15,16,100,5.53,overcast clouds
482,Sainte-Maxime,FR,43.3,6.6333,65.98,70,100,22.5,overcast clouds
483,Zunheboto,IN,25.9667,94.5167,63.95,80,50,1.05,scattered clouds
484,Evensk,RU,61.95,159.2333,8.38,73,99,12.21,overcast clouds
485,Walvis Bay,NA,-22.9575,14.5053,62.1,69,97,10.09,overcast clouds
486,Songkhla,TH,6.8333,100.6667,78.85,89,83,2.17,broken clouds
487,Aklavik,CA,68.2191,-135.0107,3.2,66,20,8.05,few clouds
488,Havre-Saint-Pierre,CA,50.2334,-63.5986,39.56,60,40,9.22,scattered clouds
489,Yuncheng,CN,35.0231,110.9928,57.13,43,100,5.35,overcast clouds
490,Ancud,CL,-41.8697,-73.8203,49.23,78,48,1.25,scattered clouds
491,Vila Velha,BR,-20.3297,-40.2925,85.95,74,40,3.44,scattered clouds
492,Darhan,MN,49.4867,105.9228,35.42,45,100,15.05,overcast clouds
493,Yinchuan,CN,38.4681,106.2731,58.64,10,95,7.29,overcast clouds
494,General Pico,AR,-35.6566,-63.7568,58.46,45,88,13.71,overcast clouds
495,Port Hardy,CA,50.6996,-127.4199,41.0,100,40,4.61,scattered clouds
496,Taksimo,RU,56.3444,114.8794,22.68,82,87,1.97,overcast clouds
497,Lhokseumawe,ID,5.1801,97.1507,81.27,83,100,5.73,light rain
498,Kopong,BW,-24.4833,25.8833,77.23,50,40,3.44,scattered clouds
499,Tabuk,PH,17.4189,121.4443,74.61,92,100,4.83,overcast clouds
500,Sulangan,PH,11.1373,123.7228,76.37,89,100,13.82,moderate rain
501,Takoradi,GH,4.8845,-1.7554,88.18,62,100,13.42,overcast clouds
502,Akureyri,IS,65.6835,-18.0878,35.53,60,100,4.61,overcast clouds
503,Donegal,IE,54.65,-8.1167,57.25,79,100,5.86,overcast clouds
504,Meulaboh,ID,4.1363,96.1285,79.86,80,94,1.41,overcast clouds
505,Guangyuan,CN,32.442,105.823,61.36,65,25,4.85,scattered clouds
506,Sakyla,FI,61.0333,22.3333,44.13,64,18,7.83,few clouds
507,Charters Towers,AU,-20.1,146.2667,72.5,74,12,11.95,few clouds
508,Faya,SA,18.3851,42.4509,80.71,24,3,13.96,clear sky
509,Beidao,CN,34.5686,105.8933,55.81,58,73,6.11,broken clouds
510,Yanaul,RU,56.2719,54.9309,40.59,99,95,8.32,overcast clouds
511,Wembley,AU,-31.9333,115.8,65.68,66,0,8.05,clear sky
512,Salinas,US,36.6777,-121.6555,46.92,70,0,4.61,clear sky
513,Toamasina,MG,-18.1667,49.3833,75.2,94,75,8.05,light intensity drizzle
514,Hovd,MN,48.0056,91.6419,38.46,30,0,2.3,clear sky
515,Ohringen,DE,49.2017,9.5039,73.08,53,89,8.99,overcast clouds
516,Severnyy,RU,50.677,36.5532,51.84,87,75,6.71,broken clouds
517,Kuremaa,EE,58.7353,26.5383,51.48,38,83,6.38,broken clouds
518,Yumen,CN,40.2833,97.2,49.41,15,100,12.03,overcast clouds
519,Salalah,OM,17.0151,54.0924,86.09,74,0,12.66,clear sky
520,Tessalit,ML,20.1986,1.0114,102.18,4,47,18.03,scattered clouds
521,Sascut,RO,46.2,27.1,52.32,36,100,15.43,overcast clouds
522,Olafsvik,IS,64.8945,-23.7142,37.49,74,100,15.3,overcast clouds
523,Rajgir,IN,25.0333,85.4167,93.11,23,100,7.83,overcast clouds
524,Luganville,VU,-15.5333,167.1667,77.92,86,48,1.83,scattered clouds
525,Poya,NC,-21.35,165.15,73.24,80,45,3.62,scattered clouds
526,Kaseda,JP,31.4167,130.3167,65.98,92,1,2.39,clear sky
527,Road Town,VG,18.4167,-64.6167,80.69,74,40,14.97,scattered clouds
528,Mulanje,MW,-16.0316,35.5,74.8,92,45,5.84,light rain
529,Pierre,US,44.3683,-100.351,50.05,56,100,48.0,overcast clouds
530,Mursalimkino,RU,55.0379,58.5585,42.33,83,100,9.06,overcast clouds
531,Bloomingdale,US,27.8936,-82.2404,73.09,73,0,7.0,clear sky
532,Severodvinsk,RU,64.5635,39.8302,44.71,83,100,4.63,overcast clouds
533,Houma,US,29.5958,-90.7195,71.01,94,40,10.36,scattered clouds
534,Udachnyy,RU,66.4167,112.4,14.97,98,100,3.2,overcast clouds
535,Ambilobe,MG,-13.2,49.05,80.85,76,21,1.52,few clouds
536,Pachino,IT,36.7186,15.0907,58.14,56,74,9.82,broken clouds
537,Ponta Do Sol,PT,32.6667,-17.1,73.0,66,100,8.93,overcast clouds
538,Padang,ID,-0.9492,100.3543,80.65,85,100,2.33,overcast clouds
539,Cabra,ES,37.4725,-4.4421,58.06,67,100,11.77,moderate rain
540,Uusikaupunki,FI,60.8004,21.4084,38.7,74,19,8.03,few clouds
541,Kysyl-Syr,RU,63.8986,122.7617,5.32,98,63,3.8,broken clouds
542,Kirkuk,IQ,35.4681,44.3922,71.85,21,0,12.33,clear sky
543,Nhulunbuy,AU,-12.2333,136.7667,83.01,83,75,3.44,broken clouds
544,Pangai,TO,-19.8,-174.35,81.93,70,11,10.87,few clouds
545,Henties Bay,NA,-22.116,14.2845,67.96,76,64,8.93,broken clouds
546,Healesville,AU,-37.65,145.5167,55.62,97,8,2.44,clear sky
547,Joshimath,IN,30.5667,79.5667,64.56,44,100,1.88,overcast clouds
548,Bathsheba,BB,13.2167,-59.5167,84.81,58,20,19.57,few clouds
549,Valparaiso,CL,-33.0393,-71.6273,61.03,58,0,6.91,clear sky
550,Sterna,GR,41.5653,26.4593,58.53,39,60,7.16,broken clouds
551,Nezhinka,RU,51.7676,55.3694,55.56,62,75,13.42,broken clouds
552,Kismayo,SO,-0.3582,42.5454,85.48,69,64,13.2,broken clouds
553,Maxixe,MZ,-23.8597,35.3472,87.62,62,20,6.91,few clouds
554,Nanding,CN,36.7483,118.0558,51.48,36,100,8.12,overcast clouds
555,Goderich,CA,43.7501,-81.7165,46.72,71,0,3.44,clear sky
556,Devonport,AU,-41.1667,146.35,55.99,79,26,6.11,scattered clouds
557,Altay,CN,47.8667,88.1167,40.75,46,0,8.81,clear sky
558,Yakeshi,CN,49.2833,120.7333,33.13,56,100,0.67,overcast clouds
559,Pangkalanbuun,ID,-2.6833,111.6167,75.06,93,16,0.81,light rain
560,Kolokani,ML,13.5728,-8.0339,103.6,16,100,9.98,overcast clouds
561,Ornskoldsvik,SE,63.2909,18.7153,41.95,56,40,9.22,scattered clouds
562,Antalaha,MG,-14.9003,50.2788,80.73,75,6,12.84,clear sky
563,Tarauaca,BR,-8.1614,-70.7656,79.86,78,77,2.24,broken clouds
564,Marsh Harbour,BS,26.5412,-77.0636,73.31,61,0,18.07,clear sky
565,Kudahuvadhoo,MV,2.6708,72.8944,85.24,71,15,12.75,few clouds
566,Preeceville,CA,51.95,-102.6677,10.8,92,37,12.44,scattered clouds
567,Bafra,TR,41.5678,35.9069,52.83,63,100,21.68,overcast clouds
568,Galle,LK,6.0367,80.217,80.96,82,100,6.06,overcast clouds
569,Saint-Georges,GD,12.0564,-61.7485,83.88,70,75,20.71,broken clouds
570,Batagay-Alyta,RU,67.8006,130.4114,0.34,96,100,4.0,overcast clouds
571,Lerwick,GB,60.1545,-1.1494,42.8,74,100,19.04,overcast clouds
572,Bubaque,GW,11.2833,-15.8333,74.79,76,100,7.72,overcast clouds
573,Oudtshoorn,ZA,-33.5907,22.2014,77.36,29,0,4.09,clear sky
574,Thinadhoo,MV,0.5333,72.9333,84.34,69,6,11.41,clear sky
575,Springbok,ZA,-29.6643,17.8865,81.09,20,0,3.2,clear sky
576,Lokosovo,RU,61.1333,74.8167,34.63,97,81,4.85,broken clouds
577,Kangaatsiaq,GL,68.3065,-53.4641,23.27,77,34,4.68,scattered clouds
578,Port Keats,AU,-14.25,129.55,81.66,73,100,5.61,light rain
579,Daru,PG,-9.0763,143.2092,82.04,86,91,12.93,overcast clouds
580,Camacha,PT,33.0833,-16.3333,63.82,72,40,16.11,scattered clouds
581,Ortigueira,BR,-24.2083,-50.9494,71.98,86,99,3.44,light rain
582,Berezovyy,RU,51.6667,135.7,26.35,98,100,3.44,light snow
583,Ekhabi,RU,53.5102,142.9671,22.62,88,99,10.13,overcast clouds
584,Betioky,MG,-23.7167,44.3833,88.84,31,99,11.16,overcast clouds
585,Ikornnes,NO,62.3873,6.557,46.33,55,100,5.01,overcast clouds
586,Suhbaatar,MN,50.2314,106.2078,31.41,50,98,14.45,overcast clouds
587,Manono,CD,-7.3,27.4167,87.85,51,43,4.52,scattered clouds
588,Bilma,NE,18.6853,12.9164,105.82,4,3,13.67,clear sky
589,Catalina Foothills,US,32.2979,-110.9187,64.49,36,0,6.91,clear sky
590,Sibu,MY,2.3,111.8167,77.31,94,20,2.3,few clouds
591,Excelsior Springs,US,39.3392,-94.2261,56.7,97,100,9.22,mist
592,Merauke,ID,-8.4667,140.3333,81.52,85,99,9.71,overcast clouds
593,Tadine,NC,-21.55,167.8833,75.36,78,22,11.72,few clouds
594,Baruun-Urt,MN,46.6806,113.2792,32.79,54,78,12.15,broken clouds
595,Eyl,SO,7.9803,49.8164,85.66,63,6,14.36,clear sky
596,Luwuk,ID,-0.9516,122.7875,78.22,75,61,2.08,broken clouds
597,Cherdakly,RU,54.3594,48.845,60.75,59,0,11.18,clear sky
598,Dali,CN,25.7,100.1833,55.87,86,33,1.14,scattered clouds
599,Pak Phanang,TH,8.3511,100.202,82.42,79,71,2.37,broken clouds
600,Cardinal,CA,44.7834,-75.3826,52.79,58,0,11.5,clear sky
601,Nicoya,CR,10.1483,-85.452,82.38,52,100,9.19,overcast clouds
602,Ransang,PH,8.9603,117.5828,76.57,83,100,1.57,overcast clouds
603,Qandala,SO,11.472,49.8728,86.05,53,0,2.89,clear sky
604,Koson,UZ,39.0375,65.585,79.12,32,0,8.86,clear sky
605,Mongu,ZM,-15.2484,23.1274,80.26,57,89,5.14,overcast clouds
606,Eregli,TR,37.5133,34.0467,44.73,47,100,7.74,overcast clouds
607,Palampur,IN,32.1167,76.5333,72.63,29,85,5.44,overcast clouds
608,San Quintin,MX,30.4833,-115.95,57.83,67,95,20.58,overcast clouds
609,Makakilo City,US,21.3469,-158.0858,73.72,75,0,8.05,clear sky
610,Kloulklubed,PW,7.0419,134.2556,81.1,79,99,22.06,overcast clouds
611,Nachingwea,TZ,-10.3833,38.7667,77.0,93,72,3.22,moderate rain
612,Sao Joao Do Paraiso,BR,-15.3136,-42.0144,85.06,47,32,4.16,scattered clouds
613,Murakami,JP,38.2333,139.4833,58.96,55,42,3.89,scattered clouds
614,Juneau,US,58.3019,-134.4197,28.4,100,20,13.8,few clouds
615,Mikhaylovka,RU,50.06,43.2379,69.78,48,18,14.43,few clouds
616,Krasnomayskiy,RU,57.6194,34.4099,38.23,92,100,7.56,light rain
617,Rio Gallegos,AR,-51.6226,-69.2181,50.05,43,20,16.11,few clouds
618,Cairns,AU,-16.9167,145.7667,78.75,85,40,10.36,scattered clouds
619,Banepa,NP,27.6298,85.5214,71.92,73,75,8.05,broken clouds
620,Tarata,BO,-17.6167,-66.0167,62.02,45,2,2.33,clear sky
621,Adrar,MR,20.5022,-10.0711,96.12,6,100,10.89,overcast clouds
622,Port Hedland,AU,-20.3167,118.5667,82.45,69,0,6.91,clear sky
623,Verkhnyaya Inta,RU,65.9811,60.3094,37.87,99,100,8.9,overcast clouds
624,Kalmunai,LK,7.4167,81.8167,82.02,81,100,9.17,heavy intensity rain
625,Sredneuralsk,RU,56.9892,60.4666,47.55,89,100,7.7,overcast clouds
626,Yarada,IN,17.65,83.2667,86.32,74,20,6.91,few clouds
627,Karaton,ID,-6.3424,106.1045,74.52,93,36,2.35,scattered clouds
628,Xining,CN,36.6167,101.7667,44.19,46,82,13.6,broken clouds
629,Mitsamiouli,KM,-11.3847,43.2844,83.68,70,59,6.96,broken clouds
630,Tilichiki,RU,60.4667,166.1,6.78,93,100,12.03,overcast clouds
631,Shaikhpura,IN,25.15,85.85,93.33,24,99,8.7,overcast clouds
632,Ipilan,PH,8.8431,117.9033,76.96,80,100,3.89,overcast clouds
633,Maragogi,BR,-9.0122,-35.2225,83.34,68,84,6.02,broken clouds
634,Yarumal,CO,6.9632,-75.4174,61.48,81,100,2.06,overcast clouds
635,Kautokeino,NO,69.0125,23.0412,30.7,84,75,4.32,broken clouds
636,Flin Flon,CA,54.7682,-101.865,10.24,67,75,11.5,broken clouds
637,Pinawa,CA,50.1489,-95.8811,26.24,63,49,4.63,scattered clouds
638,Great Yarmouth,GB,52.6083,1.7305,65.41,75,100,18.39,overcast clouds
639,Orocue,CO,4.7912,-71.3354,81.52,73,100,4.54,overcast clouds
640,Elizabeth City,US,36.2946,-76.2511,68.05,62,20,11.5,few clouds
641,Paamiut,GL,61.994,-49.6678,32.97,65,100,6.89,overcast clouds
642,Taber,CA,49.8167,-112.1518,21.04,63,100,19.57,overcast clouds
643,Kaspiyskiy,RU,45.3929,47.3707,57.22,72,45,13.22,scattered clouds
644,Wewak,PG,-3.5534,143.6268,80.8,79,38,5.88,scattered clouds
645,Hammerfest,NO,70.6634,23.6821,30.65,69,75,12.66,broken clouds
646,Dosso,NE,13.049,3.1937,107.35,15,61,3.24,broken clouds
647,Itarema,BR,-2.9248,-39.9167,83.28,73,100,4.52,overcast clouds
648,Tomislavgrad,BA,43.7181,17.2267,52.93,57,16,4.63,few clouds
649,Luorong,CN,24.4058,109.6086,73.85,85,99,6.02,overcast clouds
650,Rolla,US,37.9514,-91.7713,59.05,96,100,13.8,mist
651,Presidencia Roque Saenz Pena,AR,-26.7852,-60.4388,70.75,82,91,7.96,overcast clouds
652,Koumac,NC,-20.5667,164.2833,75.72,74,44,9.64,scattered clouds
653,Kununurra,AU,-15.7667,128.7333,82.38,65,75,4.61,broken clouds
654,Bobcaygeon,CA,44.5462,-78.542,48.15,51,1,8.21,clear sky
655,College,US,64.8569,-147.8028,28.72,58,0,9.22,clear sky
656,Yar-Sale,RU,66.8333,70.8333,35.47,100,100,14.7,overcast clouds
657,Dicabisagan,PH,17.0818,122.4157,76.82,85,81,5.61,broken clouds
658,Mehamn,NO,71.0357,27.8492,31.91,72,100,20.29,light snow
659,Maceio,BR,-9.6658,-35.7353,83.64,65,40,3.44,scattered clouds
660,Palana,RU,59.1167,159.9667,12.18,88,100,13.6,overcast clouds
661,Bambanglipuro,ID,-7.95,110.2833,77.99,83,52,4.47,broken clouds
662,Koygorodok,RU,60.445,50.9968,47.91,91,62,4.52,broken clouds
663,Puro,PH,12.4841,123.3827,77.74,86,100,6.38,moderate rain
664,Ada,US,43.4166,-116.1262,33.35,87,100,18.01,overcast clouds
665,Meadow Lake,US,34.8014,-106.5436,58.3,35,82,17.72,broken clouds
666,Birakan,RU,49.0167,131.7,23.95,96,75,3.0,broken clouds
667,Biak,ID,-0.9131,122.8766,77.49,75,67,0.65,broken clouds
668,Shimoda,JP,34.6667,138.95,65.1,93,0,9.08,clear sky
669,Julio De Castilhos,BR,-29.2269,-53.6817,68.11,82,86,3.98,overcast clouds
670,Byron Bay,AU,-28.65,153.6167,67.89,83,90,10.33,light rain
671,Kazachka,RU,53.3644,38.0694,61.83,59,100,12.08,overcast clouds
672,Khilok,RU,51.3674,110.4676,25.68,70,95,2.57,overcast clouds
673,Morondava,MG,-20.2833,44.2833,84.15,60,26,11.56,scattered clouds
674,Talara,PE,-4.5772,-81.2719,72.36,73,0,20.71,clear sky
675,Rio Cuarto,AR,-33.1307,-64.3499,65.34,88,75,9.22,light rain
676,Anse-Bertrand,GP,16.4721,-61.5078,82.22,71,53,18.7,broken clouds
677,Okakarara,NA,-20.5833,17.4333,78.78,39,100,10.29,overcast clouds
678,Gawler,AU,-34.6,138.7333,63.25,48,100,8.28,overcast clouds
679,Stonewall,CA,50.1344,-97.3268,27.68,65,33,7.07,scattered clouds
680,Kushiro,JP,42.975,144.3747,43.41,84,100,1.23,overcast clouds
681,Seoul,KR,37.5683,126.9778,63.79,88,100,9.22,overcast clouds
682,Cervo,ES,43.6702,-7.4101,60.96,62,50,9.62,scattered clouds
683,Aripuana,BR,-9.1667,-60.6333,86.2,62,27,2.28,scattered clouds
684,Aksarka,RU,66.5606,67.7975,35.19,100,100,13.18,overcast clouds
685,Savalou,BJ,7.9281,1.9756,99.43,34,64,5.21,broken clouds
686,Gigmoto,PH,13.7796,124.39,78.93,88,100,10.45,overcast clouds
687,Mnogovershinnyy,RU,53.9353,139.9242,18.41,97,100,4.41,light snow
688,Santa Cruz De Tenerife,ES,28.4682,-16.2546,73.92,74,75,18.41,broken clouds
689,Talcahuano,CL,-36.7167,-73.1167,49.68,87,0,4.61,clear sky
690,Pishin,PK,30.5803,66.9961,77.83,7,4,15.61,clear sky
691,Shu,KZ,43.5983,73.7614,59.16,88,76,4.81,light rain
692,Islampur,IN,26.2667,88.2,84.09,56,96,8.46,overcast clouds
693,Searcy,US,35.2506,-91.7363,68.99,92,100,11.5,overcast clouds
694,Kilindoni,TZ,-7.9139,39.6668,80.58,79,100,13.65,moderate rain
695,Athabasca,CA,54.7169,-113.2854,9.01,75,99,12.53,overcast clouds
696,Kisangani,CD,0.5167,25.2,88.92,51,100,1.07,overcast clouds
697,Taoudenni,ML,22.6783,-3.9836,100.15,3,82,4.76,broken clouds
698,Dengzhou,CN,37.8086,120.7508,49.89,54,100,17.05,overcast clouds
699,Yermekeyevo,RU,54.0761,53.6712,50.77,78,70,6.96,broken clouds
700,Dunedin,NZ,-45.8742,170.5036,49.8,70,35,1.01,scattered clouds
701,Juan Lacaze,UY,-34.4342,-57.4381,64.11,48,0,10.04,clear sky
702,Grindavik,IS,63.8424,-22.4338,46.87,53,75,6.91,broken clouds
703,Butajira,ET,8.1167,38.3667,78.3,29,80,11.88,broken clouds
704,Kizema,RU,61.113,44.8302,36.81,100,100,3.44,overcast clouds
705,Masuguru,TZ,-11.3667,38.4167,79.41,91,33,3.96,moderate rain
706,Vanavara,RU,60.34,102.2797,20.91,90,10,2.17,clear sky
707,Kirovskiy,RU,45.0917,133.5136,36.55,67,1,2.06,clear sky
708,Wau,SS,7.7029,27.9953,92.98,30,90,12.62,overcast clouds
709,Namie,JP,37.4833,141.0,58.55,74,34,5.44,scattered clouds
